{"type": "FeatureCollection", "features": [{"type": "Feature", "geometry": {"type": "Point", "coordinates": [10.084001813650167, 46.85000564429276]}, "properties": {"name": "Silvrettagletscher", "dV": -0.093091, "dV_abs": 0.093091, "SGI_ID": "A10g-05"}}, {"type": "Feature", "geometry": {"type": "Point", "coordinates": [9.966998290734955, 46.76601016931714]}, "properties": {"name": "J\u00f6rigletscher", "dV": -0.007136, "dV_abs": 0.007136, "SGI_ID": "A10g-18"}}, {"type": "Feature", "geometry": {"type": "Point", "coordinates": [9.952541431559665, 46.695048817859245]}, "properties": {"name": "Scalettagletscher", "dV": -0.011757, "dV_abs": 0.011757, "SGI_ID": "A12d-03"}}, {"type": "Feature", "geometry": {"type": "Point", "coordinates": [9.882173209857088, 46.626973992143185]}, "properties": {"name": "Vadret da Porchabella", "dV": -0.060677, "dV_abs": 0.060677, "SGI_ID": "A12e-04"}}, {"type": "Feature", "geometry": {"type": "Point", "coordinates": [9.842005087424885, 46.60001082311489]}, "properties": {"name": "Vadret \u00dcertsch", "dV": -0.000888, "dV_abs": 0.000888, "SGI_ID": "A12e-07"}}, {"type": "Feature", "geometry": {"type": "Point", "coordinates": [9.697011599241833, 46.54500758825166]}, "properties": {"name": "Vadret d'Err", "dV": -0.006149, "dV_abs": 0.006149, "SGI_ID": "A12i-03"}}, {"type": "Feature", "geometry": {"type": "Point", "coordinates": [9.374452152825409, 46.5071094818491]}, "properties": {"name": "Surettagletscher", "dV": -0.022825, "dV_abs": 0.022825, "SGI_ID": "A13i-02"}}, {"type": "Feature", "geometry": {"type": "Point", "coordinates": [9.28959141194249, 46.50306208347901]}, "properties": {"name": "Tambogletscher", "dV": -0.006885, "dV_abs": 0.006885, "SGI_ID": "A13k-03"}}, {"type": "Feature", "geometry": {"type": "Point", "coordinates": [9.039317745644498, 46.49882066670906]}, "properties": {"name": "L\u00e4ntagletscher", "dV": -0.038645, "dV_abs": 0.038645, "SGI_ID": "A14d-17"}}, {"type": "Feature", "geometry": {"type": "Point", "coordinates": [8.934976706684854, 46.62645611806932]}, "properties": {"name": "Glatscher da Lavaz", "dV": -0.031982, "dV_abs": 0.031982, "SGI_ID": "A14f-15"}}, {"type": "Feature", "geometry": {"type": "Point", "coordinates": [8.950997220248789, 46.798998662789096]}, "properties": {"name": "Glatscher da Punteglias", "dV": -0.024725, "dV_abs": 0.024725, "SGI_ID": "A14m-09"}}, {"type": "Feature", "geometry": {"type": "Point", "coordinates": [9.167868302449614, 46.876845071561505]}, "properties": {"name": "Vorabgletscher", "dV": -0.043521, "dV_abs": 0.043521, "SGI_ID": "A14p-01"}}, {"type": "Feature", "geometry": {"type": "Point", "coordinates": [9.249997897145574, 46.91200550638722]}, "properties": {"name": "Glatschiu dil Segnas", "dV": -0.021137, "dV_abs": 0.021137, "SGI_ID": "A14p-03"}}, {"type": "Feature", "geometry": {"type": "Point", "coordinates": [9.258006162046945, 46.92399832131509]}, "properties": {"name": "Chline Gletscher", "dV": -0.007848, "dV_abs": 0.007848, "SGI_ID": "A15b-05"}}, {"type": "Feature", "geometry": {"type": "Point", "coordinates": [9.389395036774674, 46.95954533779135]}, "properties": {"name": "Pizolgletscher", "dV": -0.002892, "dV_abs": 0.002892, "SGI_ID": "A50d-01"}}, {"type": "Feature", "geometry": {"type": "Point", "coordinates": [9.043000837223877, 46.87700000917617]}, "properties": {"name": "Hinter Sulzfirn", "dV": -0.009031, "dV_abs": 0.009031, "SGI_ID": "A50i-02"}}, {"type": "Feature", "geometry": {"type": "Point", "coordinates": [8.971442993296485, 46.81123210634335]}, "properties": {"name": "Limmerngletscher", "dV": -0.071073, "dV_abs": 0.071073, "SGI_ID": "A50i-06"}}, {"type": "Feature", "geometry": {"type": "Point", "coordinates": [8.988004249955571, 46.83299767198326]}, "properties": {"name": "Plattalva / Griessfirn", "dV": -0.016502, "dV_abs": 0.016502, "SGI_ID": "A50i-07"}}, {"type": "Feature", "geometry": {"type": "Point", "coordinates": [8.926003944134829, 46.80199892788885]}, "properties": {"name": "Bifertengletscher", "dV": -0.073019, "dV_abs": 0.073019, "SGI_ID": "A50i-12"}}, {"type": "Feature", "geometry": {"type": "Point", "coordinates": [9.001603844550084, 47.003845617297344]}, "properties": {"name": "Gl\u00e4rnischfirn", "dV": -0.055645, "dV_abs": 0.055645, "SGI_ID": "A50k-04"}}, {"type": "Feature", "geometry": {"type": "Point", "coordinates": [8.817941134466775, 46.835338143907904]}, "properties": {"name": "Griessgletscher", "dV": -0.056523, "dV_abs": 0.056523, "SGI_ID": "A51c-02"}}, {"type": "Feature", "geometry": {"type": "Point", "coordinates": [8.860996847505877, 46.827001298370824]}, "properties": {"name": "H\u00fcfifirn", "dV": -0.407325, "dV_abs": 0.407325, "SGI_ID": "A51d-10"}}, {"type": "Feature", "geometry": {"type": "Point", "coordinates": [8.776006132373611, 46.741002163979296]}, "properties": {"name": "Brunnifirn", "dV": -0.082755, "dV_abs": 0.082755, "SGI_ID": "A51d-15"}}, {"type": "Feature", "geometry": {"type": "Point", "coordinates": [8.611497643830774, 46.59610516315526]}, "properties": {"name": "Schwarzwasserfirn", "dV": -0.003495, "dV_abs": 0.003495, "SGI_ID": "A51e-08"}}, {"type": "Feature", "geometry": {"type": "Point", "coordinates": [8.602043456211337, 46.597083850571124]}, "properties": {"name": "St. Annafirn", "dV": -0.00927, "dV_abs": 0.00927, "SGI_ID": "A51e-12"}}, {"type": "Feature", "geometry": {"type": "Point", "coordinates": [8.521128541592555, 46.54250002430233]}, "properties": {"name": "Ghiacciaio di Lucendro", "dV": -0.003976, "dV_abs": 0.003976, "SGI_ID": "A51e-16"}}, {"type": "Feature", "geometry": {"type": "Point", "coordinates": [8.473997552116048, 46.53100069668621]}, "properties": {"name": "Witenwasserengletscher", "dV": -0.040305, "dV_abs": 0.040305, "SGI_ID": "A51e-20"}}, {"type": "Feature", "geometry": {"type": "Point", "coordinates": [8.426005533306864, 46.61199835344267]}, "properties": {"name": "Tiefengletscher", "dV": -0.092269, "dV_abs": 0.092269, "SGI_ID": "A51e-37"}}, {"type": "Feature", "geometry": {"type": "Point", "coordinates": [8.418005662773798, 46.659000808477785]}, "properties": {"name": "Rotfirngletscher", "dV": -0.033289, "dV_abs": 0.033289, "SGI_ID": "A51f-13"}}, {"type": "Feature", "geometry": {"type": "Point", "coordinates": [8.406186339994525, 46.68192509925222]}, "properties": {"name": "Chelengletscher", "dV": -0.072618, "dV_abs": 0.072618, "SGI_ID": "A51f-15"}}, {"type": "Feature", "geometry": {"type": "Point", "coordinates": [8.46100029165769, 46.6869974920326]}, "properties": {"name": "Flachensteinfirn", "dV": -0.07446, "dV_abs": 0.07446, "SGI_ID": "A51f-23"}}, {"type": "Feature", "geometry": {"type": "Point", "coordinates": [8.461002612735774, 46.70300180586928]}, "properties": {"name": "Wallenburfirn", "dV": -0.055639, "dV_abs": 0.055639, "SGI_ID": "A51f-24"}}, {"type": "Feature", "geometry": {"type": "Point", "coordinates": [8.517803587175315, 46.696864828184616]}, "properties": {"name": "Kartigelfirn", "dV": -0.03322, "dV_abs": 0.03322, "SGI_ID": "A51f-32"}}, {"type": "Feature", "geometry": {"type": "Point", "coordinates": [8.516003163780775, 46.77700287801815]}, "properties": {"name": "Rossfirn", "dV": -0.00753, "dV_abs": 0.00753, "SGI_ID": "A51f-52"}}, {"type": "Feature", "geometry": {"type": "Point", "coordinates": [8.530999250603433, 46.78099872931177]}, "properties": {"name": "Glatt Firn", "dV": -0.104508, "dV_abs": 0.104508, "SGI_ID": "A51g-05"}}, {"type": "Feature", "geometry": {"type": "Point", "coordinates": [8.500004066300084, 46.840998652044576]}, "properties": {"name": "Griessengletscher", "dV": -0.028642, "dV_abs": 0.028642, "SGI_ID": "A51h-02"}}, {"type": "Feature", "geometry": {"type": "Point", "coordinates": [8.453362801798585, 46.76754581471817]}, "properties": {"name": "Firnalpelifirn", "dV": -0.026377, "dV_abs": 0.026377, "SGI_ID": "A51h-13"}}, {"type": "Feature", "geometry": {"type": "Point", "coordinates": [8.443011090204505, 46.772000455506]}, "properties": {"name": "Firnalpeligletscher", "dV": -0.012065, "dV_abs": 0.012065, "SGI_ID": "A51h-14"}}, {"type": "Feature", "geometry": {"type": "Point", "coordinates": [8.40705351370717, 46.69456636732071]}, "properties": {"name": "Steilimigletscher", "dV": -0.05878, "dV_abs": 0.05878, "SGI_ID": "A54e-13"}}, {"type": "Feature", "geometry": {"type": "Point", "coordinates": [8.156000988988408, 46.61599810166957]}, "properties": {"name": "Gauligletscher", "dV": -0.341413, "dV_abs": 0.341413, "SGI_ID": "A54i-05"}}, {"type": "Feature", "geometry": {"type": "Point", "coordinates": [8.147006964010632, 46.640001483307806]}, "properties": {"name": "Rosenlouwigletscher", "dV": -0.119677, "dV_abs": 0.119677, "SGI_ID": "A54j-02"}}, {"type": "Feature", "geometry": {"type": "Point", "coordinates": [8.131002165053646, 46.60900102439675]}, "properties": {"name": "Oberer Grindelwaldgletscher", "dV": -0.235144, "dV_abs": 0.235144, "SGI_ID": "A54l-04"}}, {"type": "Feature", "geometry": {"type": "Point", "coordinates": [8.000001288105292, 46.56899782690974]}, "properties": {"name": "Eigergletscher", "dV": -0.045019, "dV_abs": 0.045019, "SGI_ID": "A54m-03"}}, {"type": "Feature", "geometry": {"type": "Point", "coordinates": [7.813002288698259, 46.50000430302963]}, "properties": {"name": "Gamchigletscher", "dV": -0.075027, "dV_abs": 0.075027, "SGI_ID": "A55a-04"}}, {"type": "Feature", "geometry": {"type": "Point", "coordinates": [7.772002278442503, 46.495004213652734]}, "properties": {"name": "Bl\u00fcemlisalpgletscher", "dV": -0.066839, "dV_abs": 0.066839, "SGI_ID": "A55b-02"}}, {"type": "Feature", "geometry": {"type": "Point", "coordinates": [7.806998204107174, 46.48099797136972]}, "properties": {"name": "Kanderfirn", "dV": -0.465635, "dV_abs": 0.465635, "SGI_ID": "A55b-13"}}, {"type": "Feature", "geometry": {"type": "Point", "coordinates": [7.680710892228587, 46.42295471642837]}, "properties": {"name": "Schwarzgletscher", "dV": -0.033182, "dV_abs": 0.033182, "SGI_ID": "A55c-05"}}, {"type": "Feature", "geometry": {"type": "Point", "coordinates": [7.207008634340692, 46.31900072912824]}, "properties": {"name": "Glacier de Prapio", "dV": -0.005025, "dV_abs": 0.005025, "SGI_ID": "B16-03"}}, {"type": "Feature", "geometry": {"type": "Point", "coordinates": [7.182998930591669, 46.30600406519596]}, "properties": {"name": "Glacier de Pierredar", "dV": -0.009004, "dV_abs": 0.009004, "SGI_ID": "B16-05"}}, {"type": "Feature", "geometry": {"type": "Point", "coordinates": [7.158003702795197, 46.25500212073874]}, "properties": {"name": "Glacier de Paneirosse", "dV": -0.012775, "dV_abs": 0.012775, "SGI_ID": "B17-02"}}, {"type": "Feature", "geometry": {"type": "Point", "coordinates": [7.145004427764637, 46.244003266426745]}, "properties": {"name": "Grand Plan N\u00e9v\u00e9", "dV": -0.00591, "dV_abs": 0.00591, "SGI_ID": "B17-03"}}, {"type": "Feature", "geometry": {"type": "Point", "coordinates": [7.139488803203978, 46.24026454598451]}, "properties": {"name": "Petit Plan N\u00e9v\u00e9", "dV": -0.006135, "dV_abs": 0.006135, "SGI_ID": "B17-04"}}, {"type": "Feature", "geometry": {"type": "Point", "coordinates": [7.082009008744426, 46.20200052104846]}, "properties": {"name": "Glacier des Martinets", "dV": -0.013262, "dV_abs": 0.013262, "SGI_ID": "B17-08"}}, {"type": "Feature", "geometry": {"type": "Point", "coordinates": [7.216001965699906, 46.319999383027636]}, "properties": {"name": "Glacier de Tsanfleuron", "dV": -0.113748, "dV_abs": 0.113748, "SGI_ID": "B22-01"}}, {"type": "Feature", "geometry": {"type": "Point", "coordinates": [7.70199771015705, 46.41599876323028]}, "properties": {"name": "Dalagletscher", "dV": -0.002191, "dV_abs": 0.002191, "SGI_ID": "B25-04"}}, {"type": "Feature", "geometry": {"type": "Point", "coordinates": [8.006851120515753, 46.46474710480364]}, "properties": {"name": "Mittelaletschgletscher", "dV": -0.247276, "dV_abs": 0.247276, "SGI_ID": "B36-21"}}, {"type": "Feature", "geometry": {"type": "Point", "coordinates": [8.42101006081598, 46.54900463918926]}, "properties": {"name": "Muttgletscher", "dV": -0.015444, "dV_abs": 0.015444, "SGI_ID": "B44-03"}}, {"type": "Feature", "geometry": {"type": "Point", "coordinates": [8.287006723075654, 46.40600080569931]}, "properties": {"name": "Turbegletscher", "dV": -0.004265, "dV_abs": 0.004265, "SGI_ID": "B46-05"}}, {"type": "Feature", "geometry": {"type": "Point", "coordinates": [8.30199989266131, 46.40100277996071]}, "properties": {"name": "Mittleb\u00e4rggletscher", "dV": -0.007133, "dV_abs": 0.007133, "SGI_ID": "B46-06"}}, {"type": "Feature", "geometry": {"type": "Point", "coordinates": [8.314550802592677, 46.394699194284094]}, "properties": {"name": "T\u00e4lligletscher N (Binn)", "dV": -0.015102, "dV_abs": 0.015102, "SGI_ID": "B46-07"}}, {"type": "Feature", "geometry": {"type": "Point", "coordinates": [8.087022560717479, 46.249315175970736]}, "properties": {"name": "Chaltwassergletscher", "dV": -0.046929, "dV_abs": 0.046929, "SGI_ID": "B47-04"}}, {"type": "Feature", "geometry": {"type": "Point", "coordinates": [8.004133649517552, 46.01287390283291]}, "properties": {"name": "Ofentalgletscher", "dV": -0.00242, "dV_abs": 0.00242, "SGI_ID": "B52-17"}}, {"type": "Feature", "geometry": {"type": "Point", "coordinates": [7.988505558594864, 46.00071713118461]}, "properties": {"name": "T\u00e4llibodengletscher", "dV": -0.004137, "dV_abs": 0.004137, "SGI_ID": "B52-20"}}, {"type": "Feature", "geometry": {"type": "Point", "coordinates": [7.9499944906383355, 45.99999891401424]}, "properties": {"name": "Seewjinengletscher", "dV": -0.039662, "dV_abs": 0.039662, "SGI_ID": "B52-22"}}, {"type": "Feature", "geometry": {"type": "Point", "coordinates": [7.8959947918103035, 46.027001909921665]}, "properties": {"name": "Allalingletscher", "dV": -0.172959, "dV_abs": 0.172959, "SGI_ID": "B52-29"}}, {"type": "Feature", "geometry": {"type": "Point", "coordinates": [7.902000858515459, 46.049997212795816]}, "properties": {"name": "Hohlaubgletscher", "dV": -0.052301, "dV_abs": 0.052301, "SGI_ID": "B52-32"}}, {"type": "Feature", "geometry": {"type": "Point", "coordinates": [7.924992916772769, 46.063996635509625]}, "properties": {"name": "Chessjengletscher", "dV": -0.014392, "dV_abs": 0.014392, "SGI_ID": "B52-33"}}, {"type": "Feature", "geometry": {"type": "Point", "coordinates": [7.873995902605941, 46.109003262847494]}, "properties": {"name": "Hohbalmgletscher", "dV": -0.028638, "dV_abs": 0.028638, "SGI_ID": "B53-07"}}, {"type": "Feature", "geometry": {"type": "Point", "coordinates": [7.860006118855403, 46.12800119446412]}, "properties": {"name": "Riedgletscher", "dV": -0.132926, "dV_abs": 0.132926, "SGI_ID": "B54-03"}}, {"type": "Feature", "geometry": {"type": "Point", "coordinates": [7.867005097028328, 46.056999172277166]}, "properties": {"name": "Alphubelgletscher N", "dV": -0.001377, "dV_abs": 0.001377, "SGI_ID": "B55-15"}}, {"type": "Feature", "geometry": {"type": "Point", "coordinates": [7.87999288607992, 45.99000384694708]}, "properties": {"name": "Findelgletscher", "dV": -0.42519, "dV_abs": 0.42519, "SGI_ID": "B56-03"}}, {"type": "Feature", "geometry": {"type": "Point", "coordinates": [7.825636249231333, 45.9407462706699]}, "properties": {"name": "Gornergletscher", "dV": -1.905004, "dV_abs": 1.905004, "SGI_ID": "B56-07"}}, {"type": "Feature", "geometry": {"type": "Point", "coordinates": [7.625002215876799, 45.99100121266006]}, "properties": {"name": "Zmuttgletscher", "dV": -0.499342, "dV_abs": 0.499342, "SGI_ID": "B57-05"}}, {"type": "Feature", "geometry": {"type": "Point", "coordinates": [7.701995823722084, 46.11999683641353]}, "properties": {"name": "Turtmanngletscher", "dV": -0.229842, "dV_abs": 0.229842, "SGI_ID": "B60-09"}}, {"type": "Feature", "geometry": {"type": "Point", "coordinates": [7.650996913635135, 46.24200348808161]}, "properties": {"name": "Bella Tola Gletscher", "dV": -0.005306, "dV_abs": 0.005306, "SGI_ID": "B61-02"}}, {"type": "Feature", "geometry": {"type": "Point", "coordinates": [7.681999678105885, 46.07699782631961]}, "properties": {"name": "Glacier de Moming", "dV": -0.106199, "dV_abs": 0.106199, "SGI_ID": "B62-10"}}, {"type": "Feature", "geometry": {"type": "Point", "coordinates": [7.63900389001782, 46.058002641069024]}, "properties": {"name": "Glacier de Zinal", "dV": -0.376084, "dV_abs": 0.376084, "SGI_ID": "B63-05"}}, {"type": "Feature", "geometry": {"type": "Point", "coordinates": [7.603006494420046, 46.067002183113914]}, "properties": {"name": "Glacier de Moiry", "dV": -0.131702, "dV_abs": 0.131702, "SGI_ID": "B64-02"}}, {"type": "Feature", "geometry": {"type": "Point", "coordinates": [7.580997590719018, 46.00200362229122]}, "properties": {"name": "Glacier de Ferp\u00e8cle", "dV": -0.281132, "dV_abs": 0.281132, "SGI_ID": "B72-11"}}, {"type": "Feature", "geometry": {"type": "Point", "coordinates": [7.555001875996678, 45.99632119525337]}, "properties": {"name": "Glacier du Mont Min\u00e9", "dV": -0.30291, "dV_abs": 0.30291, "SGI_ID": "B72-15"}}, {"type": "Feature", "geometry": {"type": "Point", "coordinates": [7.505004380413615, 45.977003241217034]}, "properties": {"name": "Mont Collon", "dV": -0.001669, "dV_abs": 0.001669, "SGI_ID": "B73-13"}}, {"type": "Feature", "geometry": {"type": "Point", "coordinates": [7.490001143130526, 45.96500210434864]}, "properties": {"name": "Bas Glacier d'Arolla", "dV": -0.167456, "dV_abs": 0.167456, "SGI_ID": "B73-14"}}, {"type": "Feature", "geometry": {"type": "Point", "coordinates": [7.475005272055854, 45.99400005321967]}, "properties": {"name": "Glacier de Pi\u00e8ce", "dV": -0.040086, "dV_abs": 0.040086, "SGI_ID": "B73-15"}}, {"type": "Feature", "geometry": {"type": "Point", "coordinates": [7.4499939308429, 45.99700063105491]}, "properties": {"name": "Glacier de Tsijiore Nouve", "dV": -0.065702, "dV_abs": 0.065702, "SGI_ID": "B73-16"}}, {"type": "Feature", "geometry": {"type": "Point", "coordinates": [7.421995646556381, 46.00800116207231]}, "properties": {"name": "Glacier de Cheilon", "dV": -0.132425, "dV_abs": 0.132425, "SGI_ID": "B74-08"}}, {"type": "Feature", "geometry": {"type": "Point", "coordinates": [7.381233359317264, 46.01498586960045]}, "properties": {"name": "Glacier de l'En Darrey", "dV": -0.041734, "dV_abs": 0.041734, "SGI_ID": "B74-11"}}, {"type": "Feature", "geometry": {"type": "Point", "coordinates": [7.349002020581266, 46.064997399271064]}, "properties": {"name": "Grand D\u00e9sert", "dV": -0.044295, "dV_abs": 0.044295, "SGI_ID": "B75-06"}}, {"type": "Feature", "geometry": {"type": "Point", "coordinates": [7.312005265529165, 46.08100057177766]}, "properties": {"name": "Glacier de Tortin", "dV": -0.027902, "dV_abs": 0.027902, "SGI_ID": "B75-12"}}, {"type": "Feature", "geometry": {"type": "Point", "coordinates": [7.394000705063737, 45.98599947091871]}, "properties": {"name": "Glacier du Gi\u00e9tro", "dV": -0.15049, "dV_abs": 0.15049, "SGI_ID": "B82-14"}}, {"type": "Feature", "geometry": {"type": "Point", "coordinates": [7.44246841564467, 45.9804494975917]}, "properties": {"name": "Glacier du Brenay", "dV": -0.206727, "dV_abs": 0.206727, "SGI_ID": "B82-19"}}, {"type": "Feature", "geometry": {"type": "Point", "coordinates": [7.457002441937429, 45.95700616546241]}, "properties": {"name": "Glacier d'Otemma", "dV": -0.726624, "dV_abs": 0.726624, "SGI_ID": "B82-27"}}, {"type": "Feature", "geometry": {"type": "Point", "coordinates": [7.3189965640805985, 45.92400176396495]}, "properties": {"name": "Glacier du Mont Durand", "dV": -0.230726, "dV_abs": 0.230726, "SGI_ID": "B82-36"}}, {"type": "Feature", "geometry": {"type": "Point", "coordinates": [7.260998252924762, 45.9660050077852]}, "properties": {"name": "Glacier de Boveire", "dV": -0.043774, "dV_abs": 0.043774, "SGI_ID": "B84-04"}}, {"type": "Feature", "geometry": {"type": "Point", "coordinates": [7.291999849503325, 45.93100392076958]}, "properties": {"name": "Glacier du Sonadon", "dV": -0.013386, "dV_abs": 0.013386, "SGI_ID": "B84-11"}}, {"type": "Feature", "geometry": {"type": "Point", "coordinates": [7.257001475493338, 45.89200259346005]}, "properties": {"name": "Glacier de Valsorey", "dV": -0.048768, "dV_abs": 0.048768, "SGI_ID": "B84-15"}}, {"type": "Feature", "geometry": {"type": "Point", "coordinates": [7.253005785368467, 45.90400480655862]}, "properties": {"name": "Glacier du Tseudet", "dV": -0.03424, "dV_abs": 0.03424, "SGI_ID": "B84-17"}}, {"type": "Feature", "geometry": {"type": "Point", "coordinates": [7.053006264883029, 45.935005461830066]}, "properties": {"name": "Glacier de l'A Neuve", "dV": -0.063209, "dV_abs": 0.063209, "SGI_ID": "B85-07"}}, {"type": "Feature", "geometry": {"type": "Point", "coordinates": [7.032946768160023, 45.969567348602375]}, "properties": {"name": "Glacier de Saleinaz", "dV": -0.173393, "dV_abs": 0.173393, "SGI_ID": "B85-16"}}, {"type": "Feature", "geometry": {"type": "Point", "coordinates": [7.025998932041843, 45.991005364960074]}, "properties": {"name": "Glacier du Trient", "dV": -0.122551, "dV_abs": 0.122551, "SGI_ID": "B90-02"}}, {"type": "Feature", "geometry": {"type": "Point", "coordinates": [6.999007081593867, 46.00300191722514]}, "properties": {"name": "Glacier des Grands", "dV": -0.029961, "dV_abs": 0.029961, "SGI_ID": "B90-04"}}, {"type": "Feature", "geometry": {"type": "Point", "coordinates": [6.937009610955201, 46.1670034262962]}, "properties": {"name": "Plan N\u00e9v\u00e9", "dV": -0.022727, "dV_abs": 0.022727, "SGI_ID": "B93-06"}}, {"type": "Feature", "geometry": {"type": "Point", "coordinates": [8.006003523675263, 46.17700106144882]}, "properties": {"name": "Rossbodegletscher", "dV": -0.032922, "dV_abs": 0.032922, "SGI_ID": "C02-04"}}, {"type": "Feature", "geometry": {"type": "Point", "coordinates": [8.47500436228145, 46.41400229529004]}, "properties": {"name": "Ghiacciaio del Bas\u00f2dino", "dV": -0.054578, "dV_abs": 0.054578, "SGI_ID": "C14-10"}}, {"type": "Feature", "geometry": {"type": "Point", "coordinates": [8.468006918248035, 46.44899903514487]}, "properties": {"name": "Ghiacciaio del Cavagn\u00f6\u00f6", "dV": -0.04317, "dV_abs": 0.04317, "SGI_ID": "C14-17"}}, {"type": "Feature", "geometry": {"type": "Point", "coordinates": [8.729886825520397, 46.43263784673314]}, "properties": {"name": "Ghiacciaio Grande di Croslina", "dV": -0.005531, "dV_abs": 0.005531, "SGI_ID": "C32-02"}}, {"type": "Feature", "geometry": {"type": "Point", "coordinates": [8.538576843517623, 46.46949698095007]}, "properties": {"name": "Ghiacciaio di Val Torta", "dV": -0.002835, "dV_abs": 0.002835, "SGI_ID": "C33-04"}}, {"type": "Feature", "geometry": {"type": "Point", "coordinates": [8.503997395334062, 46.46899896964611]}, "properties": {"name": "Ghiacciaio di Valleggia", "dV": -0.021063, "dV_abs": 0.021063, "SGI_ID": "C33-08"}}, {"type": "Feature", "geometry": {"type": "Point", "coordinates": [8.90799675663271, 46.61400455269769]}, "properties": {"name": "Vadrecc di Camadra", "dV": -0.002855, "dV_abs": 0.002855, "SGI_ID": "C42-02"}}, {"type": "Feature", "geometry": {"type": "Point", "coordinates": [9.036003526594374, 46.49600612152918]}, "properties": {"name": "Vadrecc di Bresciana", "dV": -0.019327, "dV_abs": 0.019327, "SGI_ID": "C44-02"}}, {"type": "Feature", "geometry": {"type": "Point", "coordinates": [9.697011273760191, 46.30500312059978]}, "properties": {"name": "Vadrec del Forno", "dV": -0.353887, "dV_abs": 0.353887, "SGI_ID": "C83-12"}}, {"type": "Feature", "geometry": {"type": "Point", "coordinates": [9.678001984523533, 46.317008059108375]}, "properties": {"name": "Vadrec dal Cantun", "dV": -0.019534, "dV_abs": 0.019534, "SGI_ID": "C84-09"}}, {"type": "Feature", "geometry": {"type": "Point", "coordinates": [9.636456597850794, 46.29268771153673]}, "properties": {"name": "Vadrec da l'Albigna", "dV": -0.123628, "dV_abs": 0.123628, "SGI_ID": "C84-16"}}, {"type": "Feature", "geometry": {"type": "Point", "coordinates": [9.969010323765856, 46.36900860112247]}, "properties": {"name": "Vadret da Pal\u00fc", "dV": -0.133696, "dV_abs": 0.133696, "SGI_ID": "C93-04"}}, {"type": "Feature", "geometry": {"type": "Point", "coordinates": [9.990007870013494, 46.39001264358179]}, "properties": {"name": "Vadret dal Cambrena", "dV": -0.035855, "dV_abs": 0.035855, "SGI_ID": "C93-09"}}, {"type": "Feature", "geometry": {"type": "Point", "coordinates": [10.109004332025592, 46.42100620773978]}, "properties": {"name": "Vedreit da Camp", "dV": -0.012883, "dV_abs": 0.012883, "SGI_ID": "C95-01"}}, {"type": "Feature", "geometry": {"type": "Point", "coordinates": [10.34451141684798, 46.75270873938988]}, "properties": {"name": "Vadret da Lischana", "dV": -0.001961, "dV_abs": 0.001961, "SGI_ID": "E02-06"}}, {"type": "Feature", "geometry": {"type": "Point", "coordinates": [10.40999947285446, 46.71000892798185]}, "properties": {"name": "Vadret da Sesvenna", "dV": -0.017863, "dV_abs": 0.017863, "SGI_ID": "E03-04"}}, {"type": "Feature", "geometry": {"type": "Point", "coordinates": [9.886006779635533, 46.38400834602308]}, "properties": {"name": "Vadret da Tschierva", "dV": -0.138585, "dV_abs": 0.138585, "SGI_ID": "E23-06"}}, {"type": "Feature", "geometry": {"type": "Point", "coordinates": [9.839450078239226, 46.37463646412776]}, "properties": {"name": "Vadret da Roseg", "dV": -0.20207, "dV_abs": 0.20207, "SGI_ID": "E23-11"}}, {"type": "Feature", "geometry": {"type": "Point", "coordinates": [9.821003018944367, 46.40701122519972]}, "properties": {"name": "Vadret dal Murt\u00e8l", "dV": -0.012814, "dV_abs": 0.012814, "SGI_ID": "E23-16"}}, {"type": "Feature", "geometry": {"type": "Point", "coordinates": [9.823142169762983, 46.41690205243809]}, "properties": {"name": "Vadret dal Corvatsch", "dV": -0.007722, "dV_abs": 0.007722, "SGI_ID": "E23-18"}}, {"type": "Feature", "geometry": {"type": "Point", "coordinates": [9.710002567425436, 46.513007851542696]}, "properties": {"name": "Vadret d'Agnel", "dV": -0.021076, "dV_abs": 0.021076, "SGI_ID": "E35-15"}}, {"type": "Feature", "geometry": {"type": "Point", "coordinates": [9.701003741748702, 46.526002538142606]}, "properties": {"name": "Vadret Calderas", "dV": -0.030056, "dV_abs": 0.030056, "SGI_ID": "E35-17"}}, {"type": "Feature", "geometry": {"type": "Point", "coordinates": [9.72091989060704, 46.542235161350355]}, "properties": {"name": "Vadret Laviner", "dV": -0.00663, "dV_abs": 0.00663, "SGI_ID": "E35-23"}}, {"type": "Feature", "geometry": {"type": "Point", "coordinates": [9.942067624682785, 46.739388699466524]}, "properties": {"name": "Schwarzhorngletscher (Zernez)", "dV": -0.001436, "dV_abs": 0.001436, "SGI_ID": "E46-03"}}]}